[
  {
    "day": 1,
    "plan": [
      {
        "time": "10:00",
        "place": "아사쿠사 센소지",
        "memo": "도쿄에서 가장 오래된 사찰 탐방",
        "lat": 35.714769,
        "lng": 139.796659
      },
      {
        "time": "13:00",
        "place": "아사쿠사 몬자야키 맛집",
        "memo": "현지인들이 즐겨 찾는 특별한 요리 경험",
        "lat": 35.711822,
        "lng": 139.795894
      },
      {
        "time": "15:00",
        "place": "우에노 공원",
        "memo": "공원 내 박물관 또는 동물원 관람",
        "lat": 35.7149,
        "lng": 139.7734
      },
      {
        "time": "19:00",
        "place": "아메요코 시장",
        "memo": "활기 넘치는 시장에서 길거리 음식 즐기기",
        "lat": 35.7088,
        "lng": 139.7753
      }
    ]
  },
  {
    "day": 2,
    "plan": [
      {
        "time": "10:00",
        "place": "시부야 스크램블 교차로",
        "memo": "세계에서 가장 붐비는 교차로에서 기념사진",
        "lat": 35.6595,
        "lng": 139.7004
      },
      {
        "time": "13:00",
        "place": "시부야 라멘 맛집",
        "memo": "시부야의 유명 라멘 맛집에서 점심 식사",
        "lat": 35.659858,
        "lng": 139.699719
      },
      {
        "time": "15:00",
        "place": "하라주쿠 다케시타 거리",
        "memo": "독특한 패션과 크레페로 유명한 거리 탐방",
        "lat": 35.6713,
        "lng": 139.7034
      },
      {
        "time": "19:00",
        "place": "신주쿠 가부키초",
        "memo": "네온사인 가득한 밤거리와 이자카야 즐기기",
        "lat": 35.6946,
        "lng": 139.7042
      }
    ]
  },
  {
    "day": 3,
    "plan": [
      {
        "time": "11:00",
        "place": "도쿄 미드타운",
        "memo": "현대적 건축물과 공원 산책",
        "lat": 35.666389,
        "lng": 139.731667
      },
      {
        "time": "14:00",
        "place": "롯폰기 힐즈",
        "memo": "모리 미술관과 도쿄의 스카이라인 감상",
        "lat": 35.660556,
        "lng": 139.729167
      },
      {
        "time": "17:00",
        "place": "긴자 거리",
        "memo": "고급 쇼핑가와 세련된 카페 구경",
        "lat": 35.6713,
        "lng": 139.7663
      },
      {
        "time": "19:00",
        "place": "긴자 스시 맛집",
        "memo": "여행의 마지막을 장식할 특별한 스시 오마카세",
        "lat": 35.672023,
        "lng": 139.767425
      }
    ]
  }
]